[
    {
        "lat": 45.608724,
        "lng": 126.639544,
        "title": "侵华日军七三一部队罪证陈列馆",
        "content": "这是侵华日军七三一部队罪证陈列馆"
    },
    {
        "lat": 45.790573,
        "lng": 126.608065,
        "title": "东北抗日联军纪念园",
        "content": "这是东北抗日联军纪念园"
    },
    {
        "lat": 45.765843,
        "lng": 126.642526,
        "title": "东北烈士纪念馆",
        "content": "这是东北烈士纪念馆"
    },
    {
        "lat": 45.764978,
        "lng": 126.640842,
        "title": "赵一曼碑",
        "content": "这是赵一曼碑"
    },
    {
        "lat": 45.768241,
        "lng": 126.621938,
        "title": "哈尔滨党史纪念馆",
        "content": "这是哈尔滨党史纪念馆"
    },
    {
        "lat": 45.749970,
        "lng": 126.658614,
        "title": "中共满洲省委机关旧址",
        "content": "这是中共满洲省委机关旧址"
    },
    {
        "lat": 45.772503,
        "lng": 126.624674,
        "title": "李兆麟将军纪念馆",
        "content": "这是李兆麟将军纪念馆"
    }
]