[
    {
        "lat": 45.606754,
        "lng": 126.633621,
        "title": "侵华日军第七三一部队罪证陈列馆",
        "location": "哈尔滨",
        "image": "img/731.png",
        "content": "这是侵华日军第七三一部队罪证陈列馆"
    },
    {
        "lat": 45.788669,
        "lng": 126.602148,
        "title": "东北抗日联军纪念园",
        "location": "哈尔滨",
        "image": "img/抗联.png",
        "content": "这是东北抗日联军纪念园"
    },
    {
        "lat": 45.763901,
        "lng": 126.636567,
        "title": "东北烈士纪念馆",
        "location": "哈尔滨",
        "image": "img/东北烈士.png",
        "content": "这是东北烈士纪念馆"
    },
    {
        "lat": 45.763040,
        "lng": 126.634871,
        "title": "赵一曼碑",
        "location": "哈尔滨",
        "image": "img/赵一曼.png",
        "content": "这是赵一曼碑"
    },
    {
        "lat": 45.766326,
        "lng": 126.616005,
        "title": "哈尔滨党史纪念馆",
        "location": "哈尔滨",
        "image": "img/党史.png",
        "content": "这是哈尔滨党史纪念馆"
    },
    {
        "lat": 45.747806,
        "lng": 126.652751,
        "title": "中共满洲省委机关旧址",
        "location": "哈尔滨",
        "image": "img/满洲省委.png",
        "content": "这是中共满洲省委机关旧址"
    },
    {
        "lat": 45.770524,
        "lng": 126.618708,
        "title": "李兆麟将军纪念馆",
        "location": "哈尔滨",
        "image": "img/李兆麟.png",
        "content": "这是李兆麟将军纪念馆"
    },
    {
        "lat": 45.721694,
        "lng": 126.649731,
        "title": "哈尔滨烈士陵园",
        "location": "哈尔滨",
        "image": "img/烈士陵园.png",
        "content": "这是哈尔滨烈士陵园"
    },
    {
        "lat": 41.833966,
        "lng": 123.461459,
        "title": "九一八历史博物馆",
        "location": "沈阳",
        "image": "img/918.png"
    },
    {
        "lat": 41.806781,
        "lng": 123.485749,
        "title": "沈阳二战盟军战俘营旧址陈列馆",
        "location": "沈阳",
        "image": "img/战俘营.png"
    },
    {
        "lat": 41.826819,
        "lng": 123.429675,
        "title": "中国沈阳审判日本战犯法庭旧址陈列馆",
        "location": "沈阳",
        "image": "img/审判法庭.png"
    },
    {
        "lat": 41.805390,
        "lng": 123.418790,
        "title": "中共满洲省委旧址纪念馆",
        "location": "沈阳",
        "image": "img/满洲省委-沈阳.png"
    },
    {
        "lat": 41.840333,
        "lng": 123.483576,
        "title": "北大营营房旧址",
        "location": "沈阳",
        "image": "img/北大营.png"
    }
]