[
    {
        "lat": 45.608724,
        "lng": 126.639544,
        "title": "侵华日军第七三一部队罪证陈列馆",
        "image": "img/731.png",
        "content": "这是侵华日军第七三一部队罪证陈列馆"
    },
    {
        "lat": 45.790573,
        "lng": 126.608065,
        "title": "东北抗日联军纪念园",
        "image": "img/抗联.png",
        "content": "这是东北抗日联军纪念园"
    },
    {
        "lat": 45.765843,
        "lng": 126.642526,
        "title": "东北烈士纪念馆",
        "image": "img/东北烈士.png",
        "content": "这是东北烈士纪念馆"
    },
    {
        "lat": 45.764978,
        "lng": 126.640842,
        "title": "赵一曼碑",
        "image": "img/赵一曼.png",
        "content": "这是赵一曼碑"
    },
    {
        "lat": 45.768241,
        "lng": 126.621938,
        "title": "哈尔滨党史纪念馆",
        "image": "img/党史.png",
        "content": "这是哈尔滨党史纪念馆"
    },
    {
        "lat": 45.749970,
        "lng": 126.658614,
        "title": "中共满洲省委机关旧址",
        "image": "img/满洲省委.png",
        "content": "这是中共满洲省委机关旧址"
    },
    {
        "lat": 45.772503,
        "lng": 126.624674,
        "title": "李兆麟将军纪念馆",
        "image": "img/李兆麟.png",
        "content": "这是李兆麟将军纪念馆"
    },
    {
        "lat": 45.723657,
        "lng": 126.655712,
        "title": "哈尔滨烈士陵园",
        "image": "img/烈士陵园.png",
        "content": "这是哈尔滨烈士陵园"
    }
]