[
    {
        "lat": 45.608724,
        "lng": 126.639544,
        "title": "侵华日军第七三一部队罪证陈列馆",
        "location": "哈尔滨",
        "image": "img/731.png",
        "content": "这是侵华日军第七三一部队罪证陈列馆"
    },
    {
        "lat": 45.790573,
        "lng": 126.608065,
        "title": "东北抗日联军纪念园",
        "location": "哈尔滨",
        "image": "img/抗联.png",
        "content": "这是东北抗日联军纪念园"
    },
    {
        "lat": 45.765843,
        "lng": 126.642526,
        "title": "东北烈士纪念馆",
        "location": "哈尔滨",
        "image": "img/东北烈士.png",
        "content": "这是东北烈士纪念馆"
    },
    {
        "lat": 45.764978,
        "lng": 126.640842,
        "title": "赵一曼碑",
        "location": "哈尔滨",
        "image": "img/赵一曼.png",
        "content": "这是赵一曼碑"
    },
    {
        "lat": 45.768241,
        "lng": 126.621938,
        "title": "哈尔滨党史纪念馆",
        "location": "哈尔滨",
        "image": "img/党史.png",
        "content": "这是哈尔滨党史纪念馆"
    },
    {
        "lat": 45.749970,
        "lng": 126.658614,
        "title": "中共满洲省委机关旧址",
        "location": "哈尔滨",
        "image": "img/满洲省委.png",
        "content": "这是中共满洲省委机关旧址"
    },
    {
        "lat": 45.772503,
        "lng": 126.624674,
        "title": "李兆麟将军纪念馆",
        "location": "哈尔滨",
        "image": "img/李兆麟.png",
        "content": "这是李兆麟将军纪念馆"
    },
    {
        "lat": 45.723657,
        "lng": 126.655712,
        "title": "哈尔滨烈士陵园",
        "location": "哈尔滨",
        "image": "img/烈士陵园.png",
        "content": "这是哈尔滨烈士陵园"
    },
    {
        "lat": 41.836348,
        "lng": 123.467553,
        "title": "九一八历史博物馆",
        "location": "沈阳",
        "image": "img/918.png"
    },
    {
        "lat": 41.809068,
        "lng": 123.491757,
        "title": "沈阳二战盟军战俘营旧址陈列馆",
        "location": "沈阳",
        "image": "img/战俘营.png"
    },
    {
        "lat": 41.829254,
        "lng": 123.435811,
        "title": "中国沈阳审判日本战犯法庭旧址陈列馆",
        "location": "沈阳",
        "image": "img/审判法庭.png"
    },
    {
        "lat": 41.807865,
        "lng": 123.424889,
        "title": "中共满洲省委旧址纪念馆",
        "location": "沈阳",
        "image": "img/满洲省委-沈阳.png"
    },
    {
        "lat": 41.842651,
        "lng": 123.489595,
        "title": "北大营营房旧址",
        "location": "沈阳",
        "image": "img/北大营.png"
    }
]